[
    {
        "name": "Delhi",
        "lat": 28.7041,
        "lon": 77.1025
    },
    {
        "name": "Bengaluru",
        "lat": 12.9716,
        "lon": 77.5946
    },
    {
        "name": "Mumbai",
        "lat": 19.076,
        "lon": 72.8777
    },
    {
        "name": "Chennai",
        "lat": 13.0827,
        "lon": 80.2707
    },
    {
        "name": "Kolkata",
        "lat": 22.5726,
        "lon": 88.3639
    },
    {
        "name": "Hyderabad",
        "lat": 17.385,
        "lon": 78.4867
    },
    {
        "name": "Ahmedabad",
        "lat": 23.0225,
        "lon": 72.5714
    },
    {
        "name": "Pune",
        "lat": 18.5204,
        "lon": 73.8567
    },
    {
        "name": "Surat",
        "lat": 21.1702,
        "lon": 72.8311
    },
    {
        "name": "Jaipur",
        "lat": 26.9124,
        "lon": 75.7873
    },
    {
        "name": "Lucknow",
        "lat": 26.8467,
        "lon": 80.9462
    },
    {
        "name": "Kanpur",
        "lat": 26.4499,
        "lon": 80.3319
    },
    {
        "name": "Nagpur",
        "lat": 21.1458,
        "lon": 79.0882
    },
    {
        "name": "Indore",
        "lat": 22.7196,
        "lon": 75.8577
    },
    {
        "name": "Thane",
        "lat": 19.2183,
        "lon": 72.9781
    },
    {
        "name": "Bhopal",
        "lat": 23.2599,
        "lon": 77.4126
    },
    {
        "name": "Visakhapatnam",
        "lat": 17.6868,
        "lon": 83.2185
    },
    {
        "name": "Pimpri-Chinchwad",
        "lat": 18.6276,
        "lon": 73.8000
    },
    {
        "name": "Patna",
        "lat": 25.5941,
        "lon": 85.1376
    },
    {
        "name": "Vadodara",
        "lat": 22.3072,
        "lon": 73.1812
    },
    {
        "name": "Ghaziabad",
        "lat": 28.6692,
        "lon": 77.4538
    },
    {
        "name": "Ludhiana",
        "lat": 30.9000,
        "lon": 75.8573
    },
    {
        "name": "Agra",
        "lat": 27.1767,
        "lon": 78.0081
    },
    {
        "name": "Nashik",
        "lat": 19.9975,
        "lon": 73.7898
    },
    {
        "name": "Faridabad",
        "lat": 28.4089,
        "lon": 77.3178
    },
    {
        "name": "Meerut",
        "lat": 28.9845,
        "lon": 77.7064
    },
    {
        "name": "Rajkot",
        "lat": 22.3039,
        "lon": 70.8022
    },
    {
        "name": "Kalyan-Dombivli",
        "lat": 19.2465,
        "lon": 73.1307
    },
    {
        "name": "Vasai-Virar",
        "lat": 19.3919,
        "lon": 72.8397
    },
    {
        "name": "Varanasi",
        "lat": 25.3176,
        "lon": 82.9739
    },
    {
        "name": "Srinagar",
        "lat": 34.0837,
        "lon": 74.7973
    },
    {
        "name": "Dhanbad",
        "lat": 23.7957,
        "lon": 86.4304
    },
    {
        "name": "Jodhpur",
        "lat": 26.2389,
        "lon": 73.0243
    },
    {
        "name": "Bellary",
        "lat": 15.1394,
        "lon": 76.9214
    },
    {
        "name": "Gwalior",
        "lat": 26.2183,
        "lon": 78.1828
    },
    {
        "name": "Coimbatore",
        "lat": 11.0168,
        "lon": 76.9558
    },
    {
        "name": "Vijayawada",
        "lat": 16.5062,
        "lon": 80.6480
    },
    {
        "name": "Jabalpur",
        "lat": 23.1815,
        "lon": 79.9864
    },
    {
        "name": "Madurai",
        "lat": 9.9252,
        "lon": 78.1198
    },
    {
        "name": "Guwahati",
        "lat": 26.1445,
        "lon": 91.7362
    },
    {
        "name": "Chandigarh",
        "lat": 30.7333,
        "lon": 76.7794
    },
    {
        "name": "Solapur",
        "lat": 17.6599,
        "lon": 75.9064
    },
    {
        "name": "Ranchi",
        "lat": 23.3441,
        "lon": 85.3096
    },
    {
        "name": "Mysore",
        "lat": 12.2958,
        "lon": 76.6394
    },
    {
        "name": "Tiruchirappalli",
        "lat": 10.7905,
        "lon": 78.7047
    },
    {
        "name": "Bareilly",
        "lat": 28.3640,
        "lon": 79.4152
    },
    {
        "name": "Aligarh",
        "lat": 27.8974,
        "lon": 78.0880
    },
    {
        "name": "Tiruppur",
        "lat": 11.1086,
        "lon": 77.3411
    },
    {
        "name": "Gurgaon",
        "lat": 28.4595,
        "lon": 77.0266
    },
    {
        "name": "Jalandhar",
        "lat": 31.3260,
        "lon": 75.5762
    }
]